[
  {
    "id": 0,
    "name": "Physician0",
    "practices": [
      {
        "name": "Practice0",
        "locations": [
          {
            "name": "Location0",
            "geocode": {
              "latitude": 33.9037465,
              "longitude": -84.3540817,
              "street_name": "Meridian Mark Rd NW",
              "street_number": "5445",
              "city": "Atlanta",
              "state": "GA",
              "zipcode": "30342"
            }
          },
          {
            "name": "Location1",
            "geocode": {
              "latitude": 33.9667765,
              "longitude": -84.1013929,
              "street_name": "Satellite Blvd",
              "street_number": "2660",
              "city": "Duluth",
              "state": "GA",
              "zipcode": "30096"
            }
          }
        ]
      }
    ]
  },
  {
    "id": 1,
    "name": "Physician1",
    "practices": [
      {
        "name": "Practice0",
        "locations": [
          {
            "name": "Location0",
            "geocode": {
              "latitude": 33.7937283,
              "longitude": -84.3197718,
              "street_name": "Clifton Rd NE",
              "street_number": "1405",
              "city": "Atlanta",
              "state": "GA",
              "zipcode": "30322"
            }
          },
          {
            "name": "Location1",
            "geocode": {
              "latitude": 33.8315636,
              "longitude": -84.3322243,
              "street_name": "Tullie Rd NE",
              "street_number": "1400",
              "city": "Atlanta",
              "state": "GA",
              "zipcode": "30329"
            }
          }
        ]
      },
      {
        "name": "Practice1",
        "locations": [
          {
            "name": "Location0",
            "geocode": {
              "latitude": 33.7935738,
              "longitude": -84.3186323,
              "street_name": "Uppergate Dr NE",
              "street_number": "2015",
              "city": "Atlanta",
              "state": "GA",
              "zipcode": "30322"
            }
          }
        ]
      }
    ]
  },
  {
    "id": 2,
    "name": "Physician2",
    "practices": [
      {
        "name": "Practice0",
        "locations": [
          {
            "name": "Location0",
            "geocode": {
              "latitude": 33.7937283,
              "longitude": -84.3197718,
              "street_name": "Clifton Rd NE",
              "street_number": "1405",
              "city": "Atlanta",
              "state": "GA",
              "zipcode": "30322"
            }
          },
          {
            "name": "Location1",
            "geocode": {
              "latitude": 33.906061,
              "longitude": -84.3542984,
              "street_name": "Johnson Ferry Rd NE",
              "street_number": "1001",
              "city": "Atlanta",
              "state": "GA",
              "zipcode": "30342"
            }
          },
          {
            "name": "Location2",
            "geocode": {
              "latitude": 33.90522,
              "longitude": -84.3544139,
              "street_name": "Meridian Mark Rd NE",
              "street_number": "5461",
              "city": "Atlanta",
              "state": "GA",
              "zipcode": "30342"
            }
          }
        ]
      },
      {
        "name": "Practice1",
        "locations": [
          {
            "name": "Location0",
            "geocode": {
              "latitude": 33.8317072,
              "longitude": -84.3322364,
              "street_name": "Tullie Rd NE",
              "street_number": "1400",
              "city": "Atlanta",
              "state": "GA",
              "zipcode": "30329"
            }
          }
        ]
      },
      {
        "name": "Practice2",
        "locations": [
          {
            "name": "Location0",
            "geocode": {
              "latitude": 33.8315636,
              "longitude": -84.3322243,
              "street_name": "Tullie Rd NE",
              "street_number": "1400",
              "city": "Atlanta",
              "state": "GA",
              "zipcode": "30329"
            }
          }
        ]
      }
    ]
  },
  {
    "id": 3,
    "name": "Physician3",
    "practices": [
      {
        "name": "Practice0",
        "locations": [
          {
            "name": "Location0",
            "geocode": {
              "latitude": 33.9788014,
              "longitude": -84.1017144,
              "street_name": "Duluth Hwy",
              "street_number": "2270",
              "city": "Duluth",
              "state": "GA",
              "zipcode": "30097"
            }
          },
          {
            "name": "Location1",
            "geocode": {
              "latitude": 33.91448,
              "longitude": -83.4696719,
              "street_name": "Langford Dr",
              "street_number": "1181",
              "city": "Watkinsville",
              "state": "GA",
              "zipcode": "30677"
            }
          },
          {
            "name": "Location2",
            "geocode": {
              "latitude": 33.9037465,
              "longitude": -84.3540817,
              "street_name": "Meridian Mark Rd NE",
              "street_number": "5445",
              "city": "Atlanta",
              "state": "GA",
              "zipcode": "30342"
            }
          }
        ]
      }
    ]
  },
  {
    "id": 4,
    "name": "Physician4",
    "practices": [
      {
        "name": "Practice0",
        "locations": [
          {
            "name": "Location0",
            "geocode": {
              "latitude": 33.8317072,
              "longitude": -84.3322364,
              "street_name": "Tullie Rd NE",
              "street_number": "1400",
              "city": "Atlanta",
              "state": "GA",
              "zipcode": "30329"
            }
          },
          {
            "name": "Location1",
            "geocode": {
              "latitude": 34.0269472,
              "longitude": -84.5682809,
              "street_name": "Big Shanty Rd NW",
              "street_number": "605",
              "city": "Kennesaw",
              "state": "GA",
              "zipcode": "30144"
            }
          }
        ]
      }
    ]
  },
  {
    "id": 5,
    "name": "Physician5",
    "practices": [
      {
        "name": "Practice0",
        "locations": [
          {
            "name": "Location0",
            "geocode": {
              "latitude": 33.906061,
              "longitude": -84.3542984,
              "street_name": "Johnson Ferry Rd NE",
              "street_number": "1001",
              "city": "Atlanta",
              "state": "GA",
              "zipcode": "30342"
            }
          },
          {
            "name": "Location1",
            "geocode": {
              "latitude": 33.9037465,
              "longitude": -84.3540817,
              "street_name": "Meridian Mark Rd",
              "street_number": "5445",
              "city": "Atlanta",
              "state": "GA",
              "zipcode": "30342"
            }
          },
          {
            "name": "Location2",
            "geocode": {
              "latitude": 33.8315636,
              "longitude": -84.3322243,
              "street_name": "Tullie Rd NE",
              "street_number": "1400",
              "city": "Atlanta",
              "state": "GA",
              "zipcode": "30329"
            }
          },
          {
            "name": "Location3",
            "geocode": {
              "latitude": 33.9667765,
              "longitude": -84.1013929,
              "street_name": "Satellite Blvd",
              "street_number": "2660",
              "city": "Duluth",
              "state": "GA",
              "zipcode": "30096"
            }
          }
        ]
      }
    ]
  },
  {
    "id": 6,
    "name": "Physician6",
    "practices": [
      {
        "name": "Practice0",
        "locations": [
          {
            "name": "Location0",
            "geocode": {
              "latitude": 33.7813956,
              "longitude": -84.3228342,
              "street_name": "Clifton Rd NE",
              "street_number": "1405",
              "city": "Atlanta",
              "state": "GA",
              "zipcode": "30322"
            }
          },
          {
            "name": "Location1",
            "geocode": {
              "latitude": 33.9667765,
              "longitude": -84.1013929,
              "street_name": "Satellite Blvd",
              "street_number": "2660",
              "city": "Duluth",
              "state": "GA",
              "zipcode": "30096"
            }
          },
          {
            "name": "Location2",
            "geocode": {
              "latitude": 33.8315636,
              "longitude": -84.3322243,
              "street_name": "Tullie Rd NE",
              "street_number": "1400",
              "city": "Atlanta",
              "state": "GA",
              "zipcode": "30329"
            }
          },
          {
            "name": "Location3",
            "geocode": {
              "latitude": 33.9697175,
              "longitude": -83.4127957,
              "street_name": "Hawthorne Ave",
              "street_number": "1000",
              "city": "Athens",
              "state": "GA",
              "zipcode": "30606"
            }
          }
        ]
      }
    ]
  },
  {
    "id": 7,
    "name": "Physician7",
    "practices": [
      {
        "name": "Practice0",
        "locations": [
          {
            "name": "Location0",
            "geocode": {
              "latitude": 33.9287965,
              "longitude": -84.3588732,
              "street_name": "Mount Vernon Hwy NE",
              "street_number": "859",
              "city": "Atlanta",
              "state": "GA",
              "zipcode": "30328"
            }
          },
          {
            "name": "Location1",
            "geocode": {
              "latitude": 34.0694722,
              "longitude": -84.2657757,
              "street_name": "Old Milton Pkwy",
              "street_number": "3300",
              "city": "Alpharetta",
              "state": "GA",
              "zipcode": "30005"
            }
          },
          {
            "name": "Location2",
            "geocode": {
              "latitude": 34.0269472,
              "longitude": -84.5682809,
              "street_name": "Big Shanty Rd NW",
              "street_number": "605",
              "city": "Kennesaw",
              "state": "GA",
              "zipcode": "30144"
            }
          }
        ]
      }
    ]
  },
  {
    "id": 8,
    "name": "Physician8",
    "practices": [
      {
        "name": "Practice0",
        "locations": [
          {
            "name": "Location0",
            "geocode": {
              "latitude": 33.7937283,
              "longitude": -84.3197718,
              "street_name": "Clifton Rd NE",
              "street_number": "1405",
              "city": "Atlanta",
              "state": "GA",
              "zipcode": "30322"
            }
          },
          {
            "name": "Location1",
            "geocode": {
              "latitude": 33.906061,
              "longitude": -84.3542984,
              "street_name": "Johnson Ferry Rd NE",
              "street_number": "1001",
              "city": "Atlanta",
              "state": "GA",
              "zipcode": "30342"
            }
          }
        ]
      }
    ]
  },
  {
    "id": 9,
    "name": "Physician9",
    "practices": [
      {
        "name": "Practice0",
        "locations": [
          {
            "name": "Location0",
            "geocode": {
              "latitude": 33.9287965,
              "longitude": -84.3588732,
              "street_name": "Mount Vernon Hwy NE",
              "street_number": "859",
              "city": "Atlanta",
              "state": "GA",
              "zipcode": "30328"
            }
          },
          {
            "name": "Location1",
            "geocode": {
              "latitude": 34.0694722,
              "longitude": -84.2657757,
              "street_name": "Old Milton Pkwy",
              "street_number": "3300",
              "city": "Alpharetta",
              "state": "GA",
              "zipcode": "30005"
            }
          }
        ]
      },
      {
        "name": "Practice1",
        "locations": [
          {
            "name": "Location0",
            "geocode": {
              "latitude": 33.8315636,
              "longitude": -84.3322243,
              "street_name": "Tullie Rd NE",
              "street_number": "1400",
              "city": "Atlanta",
              "state": "GA",
              "zipcode": "30329"
            }
          }
        ]
      }
    ]
  },
  {
    "id": 10,
    "name": "Physician10",
    "practices": [
      {
        "name": "Practice0",
        "locations": [
          {
            "name": "Location0",
            "geocode": {
              "latitude": 33.9718764,
              "longitude": -84.5547322,
              "street_name": "White St NW",
              "street_number": "175",
              "city": "Marietta",
              "state": "GA",
              "zipcode": "30060"
            }
          },
          {
            "name": "Location1",
            "geocode": {
              "latitude": 33.9037465,
              "longitude": -84.3540817,
              "street_name": "Meridian Mark Rd NE",
              "street_number": "5445",
              "city": "Atlanta",
              "state": "GA",
              "zipcode": "30342"
            }
          }
        ]
      },
      {
        "name": "Practice1",
        "locations": [
          {
            "name": "Location0",
            "geocode": {
              "latitude": 33.8315636,
              "longitude": -84.3322243,
              "street_name": "Tullie Rd NE",
              "street_number": "1400",
              "city": "Atlanta",
              "state": "GA",
              "zipcode": "30329"
            }
          }
        ]
      }
    ]
  },
  {
    "id": 11,
    "name": "Physician11",
    "practices": [
      {
        "name": "Practice0",
        "locations": [
          {
            "name": "Location0",
            "geocode": {
              "latitude": 33.906061,
              "longitude": -84.3542984,
              "street_name": "Johnson Ferry Rd NE",
              "street_number": "1001",
              "city": "Atlanta",
              "state": "GA",
              "zipcode": "30342"
            }
          },
          {
            "name": "Location1",
            "geocode": {
              "latitude": 33.90522,
              "longitude": -84.3544139,
              "street_name": "Meridian Mark Rd NE",
              "street_number": "5461",
              "city": "Atlanta",
              "state": "GA",
              "zipcode": "30342"
            }
          }
        ]
      }
    ]
  },
  {
    "id": 12,
    "name": "Physician12",
    "practices": [
      {
        "name": "Practice0",
        "locations": [
          {
            "name": "Location0",
            "geocode": {
              "latitude": 33.8315636,
              "longitude": -84.3322243,
              "street_name": "Tullie Rd NE",
              "street_number": "1400",
              "city": "Atlanta",
              "state": "GA",
              "zipcode": "30329"
            }
          },
          {
            "name": "Location1",
            "geocode": {
              "latitude": 33.906061,
              "longitude": -84.3542984,
              "street_name": "Johnson Ferry Rd NE",
              "street_number": "1001",
              "city": "Atlanta",
              "state": "GA",
              "zipcode": "30342"
            }
          }
        ]
      }
    ]
  },
  {
    "id": 13,
    "name": "Physician13",
    "practices": [
      {
        "name": "Practice0",
        "locations": [
          {
            "name": "Location0",
            "geocode": {
              "latitude": 33.8317072,
              "longitude": -84.3322364,
              "street_name": "Tullie Rd NE",
              "street_number": "1400",
              "city": "Atlanta",
              "state": "GA",
              "zipcode": "30329"
            }
          },
          {
            "name": "Location1",
            "geocode": {
              "latitude": 34.0368681,
              "longitude": -84.2926796,
              "street_name": "Mansell Rd",
              "street_number": "3795",
              "city": "Alpharetta",
              "state": "GA",
              "zipcode": "30022"
            }
          }
        ]
      }
    ]
  },
  {
    "id": 14,
    "name": "Physician14",
    "practices": [
      {
        "name": "Practice0",
        "locations": [
          {
            "name": "Location0",
            "geocode": {
              "latitude": 33.8315636,
              "longitude": -84.3322243,
              "street_name": "Tullie Rd NE",
              "street_number": "1400",
              "city": "Atlanta",
              "state": "GA",
              "zipcode": "30329"
            }
          },
          {
            "name": "Location1",
            "geocode": {
              "latitude": 33.9667765,
              "longitude": -84.1013929,
              "street_name": "Satellite Blvd",
              "street_number": "2660",
              "city": "Duluth",
              "state": "GA",
              "zipcode": "30096"
            }
          },
          {
            "name": "Location2",
            "geocode": {
              "latitude": 34.0269472,
              "longitude": -84.5682809,
              "street_name": "Big Shanty Rd NW",
              "street_number": "605",
              "city": "Kennesaw",
              "state": "GA",
              "zipcode": "30144"
            }
          }
        ]
      }
    ]
  },
  {
    "id": 15,
    "name": "Physician15",
    "practices": [
      {
        "name": "Practice0",
        "locations": [
          {
            "name": "Location0",
            "geocode": {
              "latitude": 33.906061,
              "longitude": -84.3542984,
              "street_name": "Johnson Ferry Rd NE",
              "street_number": "1001",
              "city": "Atlanta",
              "state": "GA",
              "zipcode": "30342"
            }
          },
          {
            "name": "Location1",
            "geocode": {
              "latitude": 33.9037465,
              "longitude": -84.3540817,
              "street_name": "Meridian Mark Rd",
              "street_number": "5445",
              "city": "Atlanta",
              "state": "GA",
              "zipcode": "30342"
            }
          },
          {
            "name": "Location2",
            "geocode": {
              "latitude": 33.8315636,
              "longitude": -84.3322243,
              "street_name": "Tullie Rd NE",
              "street_number": "1400",
              "city": "Atlanta",
              "state": "GA",
              "zipcode": "30329"
            }
          },
          {
            "name": "Location3",
            "geocode": {
              "latitude": 34.0269472,
              "longitude": -84.5682809,
              "street_name": "Big Shanty Rd NW",
              "street_number": "605",
              "city": "Kennesaw",
              "state": "GA",
              "zipcode": "30144"
            }
          }
        ]
      }
    ]
  },
  {
    "id": 16,
    "name": "Physician16",
    "practices": [
      {
        "name": "Practice0",
        "locations": [
          {
            "name": "Location0",
            "geocode": {
              "latitude": 33.7937283,
              "longitude": -84.3197718,
              "street_name": "Clifton Rd NE",
              "street_number": "1405",
              "city": "Atlanta",
              "state": "GA",
              "zipcode": "30322"
            }
          },
          {
            "name": "Location1",
            "geocode": {
              "latitude": 33.906061,
              "longitude": -84.3542984,
              "street_name": "Johnson Ferry Rd NE",
              "street_number": "1001",
              "city": "Atlanta",
              "state": "GA",
              "zipcode": "30342"
            }
          },
          {
            "name": "Location2",
            "geocode": {
              "latitude": 33.90522,
              "longitude": -84.3544139,
              "street_name": "Meridian Mark Rd NE",
              "street_number": "5461",
              "city": "Atlanta",
              "state": "GA",
              "zipcode": "30342"
            }
          }
        ]
      }
    ]
  },
  {
    "id": 17,
    "name": "Physician17",
    "practices": [
      {
        "name": "Practice0",
        "locations": [
          {
            "name": "Location0",
            "geocode": {
              "latitude": 33.8315636,
              "longitude": -84.3322243,
              "street_name": "Tullie Rd NE",
              "street_number": "1400",
              "city": "Atlanta",
              "state": "GA",
              "zipcode": "30329"
            }
          },
          {
            "name": "Location1",
            "geocode": {
              "latitude": 33.7935738,
              "longitude": -84.3186323,
              "street_name": "Uppergate Dr NE",
              "street_number": "2015",
              "city": "Atlanta",
              "state": "GA",
              "zipcode": "30322"
            }
          }
        ]
      },
      {
        "name": "Practice1",
        "locations": [
          {
            "name": "Location0",
            "geocode": {
              "latitude": 33.8315636,
              "longitude": -84.3322243,
              "street_name": "Tullie Cir SE",
              "street_number": "1400",
              "city": "Atlanta",
              "state": "GA",
              "zipcode": "30329"
            }
          }
        ]
      },
      {
        "name": "Practice2",
        "locations": [
          {
            "name": "Location0",
            "geocode": {
              "latitude": 33.7813956,
              "longitude": -84.3228342,
              "street_name": "Clifton Rd NE",
              "street_number": "1405",
              "city": "Atlanta",
              "state": "GA",
              "zipcode": "30322"
            }
          }
        ]
      }
    ]
  },
  {
    "id": 18,
    "name": "Physician18",
    "practices": [
      {
        "name": "Practice0",
        "locations": [
          {
            "name": "Location0",
            "geocode": {
              "latitude": 33.906061,
              "longitude": -84.3542984,
              "street_name": "Johnson Ferry Rd NE",
              "street_number": "1001",
              "city": "Atlanta",
              "state": "GA",
              "zipcode": "30342"
            }
          },
          {
            "name": "Location1",
            "geocode": {
              "latitude": 33.8315636,
              "longitude": -84.3322243,
              "street_name": "Tullie Rd NE",
              "street_number": "1400",
              "city": "Atlanta",
              "state": "GA",
              "zipcode": "30329"
            }
          },
          {
            "name": "Location2",
            "geocode": {
              "latitude": 33.9667765,
              "longitude": -84.1013929,
              "street_name": "Satellite Blvd",
              "street_number": "2660",
              "city": "Duluth",
              "state": "GA",
              "zipcode": "30096"
            }
          }
        ]
      }
    ]
  },
  {
    "id": 19,
    "name": "Physician19",
    "practices": [
      {
        "name": "Practice0",
        "locations": [
          {
            "name": "Location0",
            "geocode": {
              "latitude": 33.8315636,
              "longitude": -84.3322243,
              "street_name": "Tullie Rd NE",
              "street_number": "1400",
              "city": "Atlanta",
              "state": "GA",
              "zipcode": "30329"
            }
          },
          {
            "name": "Location1",
            "geocode": {
              "latitude": 33.9667765,
              "longitude": -84.1013929,
              "street_name": "Satellite Blvd",
              "street_number": "2660",
              "city": "Duluth",
              "state": "GA",
              "zipcode": "30096"
            }
          }
        ]
      },
      {
        "name": "Practice1",
        "locations": [
          {
            "name": "Location0",
            "geocode": {
              "latitude": 33.967431,
              "longitude": -84.0998596,
              "street_name": "Satellite Blvd",
              "street_number": "2620",
              "city": "Duluth",
              "state": "GA",
              "zipcode": "30096"
            }
          }
        ]
      }
    ]
  },
  {
    "id": 20,
    "name": "Physician20",
    "practices": [
      {
        "name": "Practice0",
        "locations": [
          {
            "name": "Location0",
            "geocode": {
              "latitude": 33.90522,
              "longitude": -84.3544139,
              "street_name": "Meridian Mark Rd",
              "street_number": "5461",
              "city": "Atlanta",
              "state": "GA",
              "zipcode": "30342"
            }
          },
          {
            "name": "Location1",
            "geocode": {
              "latitude": 33.9667765,
              "longitude": -84.1013929,
              "street_name": "Satellite Blvd",
              "street_number": "2660",
              "city": "Duluth",
              "state": "GA",
              "zipcode": "30096"
            }
          },
          {
            "name": "Location2",
            "geocode": {
              "latitude": 34.1535941,
              "longitude": -84.1768731,
              "street_name": "Peachtree Pkwy",
              "street_number": "410",
              "city": "Cumming",
              "state": "GA",
              "zipcode": "30041"
            }
          }
        ]
      }
    ]
  },
  {
    "id": 21,
    "name": "Physician21",
    "practices": [
      {
        "name": "Practice0",
        "locations": [
          {
            "name": "Location0",
            "geocode": {
              "latitude": 33.7937283,
              "longitude": -84.3197718,
              "street_name": "Clifton Rd NE",
              "street_number": "1405",
              "city": "Atlanta",
              "state": "GA",
              "zipcode": "30322"
            }
          },
          {
            "name": "Location1",
            "geocode": {
              "latitude": 33.906061,
              "longitude": -84.3542984,
              "street_name": "Johnson Ferry Rd NE",
              "street_number": "1001",
              "city": "Atlanta",
              "state": "GA",
              "zipcode": "30342"
            }
          }
        ]
      }
    ]
  },
  {
    "id": 22,
    "name": "Physician22",
    "practices": [
      {
        "name": "Practice0",
        "locations": [
          {
            "name": "Location0",
            "geocode": {
              "latitude": 33.90522,
              "longitude": -84.3544139,
              "street_name": "Meridian Mark Rd",
              "street_number": "5461",
              "city": "Atlanta",
              "state": "GA",
              "zipcode": "30342"
            }
          },
          {
            "name": "Location1",
            "geocode": {
              "latitude": 34.0694722,
              "longitude": -84.2657757,
              "street_name": "Old Milton Pkwy",
              "street_number": "3300",
              "city": "Alpharetta",
              "state": "GA",
              "zipcode": "30005"
            }
          }
        ]
      }
    ]
  },
  {
    "id": 23,
    "name": "Physician23",
    "practices": [
      {
        "name": "Practice0",
        "locations": [
          {
            "name": "Location0",
            "geocode": {
              "latitude": 33.906061,
              "longitude": -84.3542984,
              "street_name": "Johnson Ferry Rd",
              "street_number": "1001",
              "city": "Atlanta",
              "state": "GA",
              "zipcode": "30342"
            }
          },
          {
            "name": "Location1",
            "geocode": {
              "latitude": 33.8317072,
              "longitude": -84.3322364,
              "street_name": "Tullie Rd NE",
              "street_number": "1400",
              "city": "Atlanta",
              "state": "GA",
              "zipcode": "30329"
            }
          }
        ]
      }
    ]
  },
  {
    "id": 24,
    "name": "Physician24",
    "practices": [
      {
        "name": "Practice0",
        "locations": [
          {
            "name": "Location0",
            "geocode": {
              "latitude": 33.8094046,
              "longitude": -84.3353883,
              "street_name": "Briarcliff Rd NE",
              "street_number": "1920",
              "city": "Atlanta",
              "state": "GA",
              "zipcode": "30329"
            }
          },
          {
            "name": "Location1",
            "geocode": {
              "latitude": 33.906111,
              "longitude": -84.3554636,
              "street_name": "D Johnson Ferry Rd",
              "street_number": "993",
              "city": "Atlanta",
              "state": "GA",
              "zipcode": "30342"
            }
          }
        ]
      },
      {
        "name": "Practice1",
        "locations": [
          {
            "name": "Location0",
            "geocode": {
              "latitude": 33.8315636,
              "longitude": -84.3322243,
              "street_name": "Tullie Rd NE",
              "street_number": "1400",
              "city": "Atlanta",
              "state": "GA",
              "zipcode": "30329"
            }
          }
        ]
      },
      {
        "name": "Practice2",
        "locations": [
          {
            "name": "Location0",
            "geocode": {
              "latitude": 33.8315636,
              "longitude": -84.3322243,
              "street_name": "Tullie Rd NE",
              "street_number": "1400",
              "city": "Atlanta",
              "state": "GA",
              "zipcode": "30329"
            }
          }
        ]
      }
    ]
  },
  {
    "id": 25,
    "name": "Physician25",
    "practices": [
      {
        "name": "Practice0",
        "locations": [
          {
            "name": "Location0",
            "geocode": {
              "latitude": 33.7937283,
              "longitude": -84.3197718,
              "street_name": "Clifton Rd NE",
              "street_number": "1405",
              "city": "Atlanta",
              "state": "GA",
              "zipcode": "30322"
            }
          },
          {
            "name": "Location1",
            "geocode": {
              "latitude": 33.7538991,
              "longitude": -84.382008,
              "street_name": "Jesse Hill Jr Dr SE",
              "street_number": "35",
              "city": "Atlanta",
              "state": "GA",
              "zipcode": "30303"
            }
          },
          {
            "name": "Location2",
            "geocode": {
              "latitude": 33.906061,
              "longitude": -84.3542984,
              "street_name": "Johnson Ferry Rd NE",
              "street_number": "1001",
              "city": "Atlanta",
              "state": "GA",
              "zipcode": "30342"
            }
          }
        ]
      }
    ]
  },
  {
    "id": 26,
    "name": "Physician26",
    "practices": [
      {
        "name": "Practice0",
        "locations": [
          {
            "name": "Location0",
            "geocode": {
              "latitude": 33.8317072,
              "longitude": -84.3322364,
              "street_name": "Tullie Rd NE",
              "street_number": "1400",
              "city": "Atlanta",
              "state": "GA",
              "zipcode": "30329"
            }
          },
          {
            "name": "Location1",
            "geocode": {
              "latitude": 33.9472661,
              "longitude": -83.4058492,
              "street_name": "Baxter St",
              "street_number": "1230",
              "city": "Athens",
              "state": "GA",
              "zipcode": "30606"
            }
          }
        ]
      }
    ]
  },
  {
    "id": 27,
    "name": "Physician27",
    "practices": [
      {
        "name": "Practice0",
        "locations": [
          {
            "name": "Location0",
            "geocode": {
              "latitude": 33.7937283,
              "longitude": -84.3197718,
              "street_name": "Clifton Rd NE",
              "street_number": "1405",
              "city": "Atlanta",
              "state": "GA",
              "zipcode": "30322"
            }
          },
          {
            "name": "Location1",
            "geocode": {
              "latitude": 33.90522,
              "longitude": -84.3544139,
              "street_name": "Meridian Mark Rd NE",
              "street_number": "5461",
              "city": "Atlanta",
              "state": "GA",
              "zipcode": "30342"
            }
          }
        ]
      }
    ]
  },
  {
    "id": 28,
    "name": "Physician28",
    "practices": [
      {
        "name": "Practice0",
        "locations": [
          {
            "name": "Location0",
            "geocode": {
              "latitude": 33.9287965,
              "longitude": -84.3588732,
              "street_name": "Mount Vernon Hwy NE",
              "street_number": "859",
              "city": "Atlanta",
              "state": "GA",
              "zipcode": "30328"
            }
          },
          {
            "name": "Location1",
            "geocode": {
              "latitude": 34.0694722,
              "longitude": -84.2657757,
              "street_name": "Old Milton Pkwy",
              "street_number": "3300",
              "city": "Alpharetta",
              "state": "GA",
              "zipcode": "30005"
            }
          },
          {
            "name": "Location2",
            "geocode": {
              "latitude": 34.0269472,
              "longitude": -84.5682809,
              "street_name": "Big Shanty Rd NW",
              "street_number": "605",
              "city": "Kennesaw",
              "state": "GA",
              "zipcode": "30144"
            }
          },
          {
            "name": "Location3",
            "geocode": {
              "latitude": 33.4026155,
              "longitude": -84.710126,
              "street_name": "Oak Hill Blvd",
              "street_number": "60",
              "city": "Newnan",
              "state": "GA",
              "zipcode": "30265"
            }
          }
        ]
      },
      {
        "name": "Practice1",
        "locations": [
          {
            "name": "Location0",
            "geocode": {
              "latitude": 33.8316693,
              "longitude": -84.3321942,
              "street_name": "Tullie Rd NE",
              "street_number": "1400",
              "city": "Atlanta",
              "state": "GA",
              "zipcode": "30329"
            }
          }
        ]
      },
      {
        "name": "Practice2",
        "locations": [
          {
            "name": "Location0",
            "geocode": {
              "latitude": 33.7538991,
              "longitude": -84.382008,
              "street_name": "Jesse Hill Jr Dr SE",
              "street_number": "35",
              "city": "Atlanta",
              "state": "GA",
              "zipcode": "30303"
            }
          }
        ]
      }
    ]
  },
  {
    "id": 29,
    "name": "Physician29",
    "practices": [
      {
        "name": "Practice0",
        "locations": [
          {
            "name": "Location0",
            "geocode": {
              "latitude": 33.90522,
              "longitude": -84.3544139,
              "street_name": "Meridian Mark Rd",
              "street_number": "5461",
              "city": "Atlanta",
              "state": "GA",
              "zipcode": "30342"
            }
          },
          {
            "name": "Location1",
            "geocode": {
              "latitude": 34.0694722,
              "longitude": -84.2657757,
              "street_name": "Old Milton Pkwy",
              "street_number": "3300",
              "city": "Alpharetta",
              "state": "GA",
              "zipcode": "30005"
            }
          }
        ]
      }
    ]
  },
  {
    "id": 30,
    "name": "Physician30",
    "practices": [
      {
        "name": "Practice0",
        "locations": [
          {
            "name": "Location0",
            "geocode": {
              "latitude": 33.906061,
              "longitude": -84.3542984,
              "street_name": "Johnson Ferry Rd NE",
              "street_number": "1001",
              "city": "Atlanta",
              "state": "GA",
              "zipcode": "30342"
            }
          },
          {
            "name": "Location1",
            "geocode": {
              "latitude": 33.90522,
              "longitude": -84.3544139,
              "street_name": "Meridian Mark Rd NE",
              "street_number": "5461",
              "city": "Atlanta",
              "state": "GA",
              "zipcode": "30342"
            }
          }
        ]
      }
    ]
  },
  {
    "id": 31,
    "name": "Physician31",
    "practices": [
      {
        "name": "Practice0",
        "locations": [
          {
            "name": "Location0",
            "geocode": {
              "latitude": 33.9287965,
              "longitude": -84.3588732,
              "street_name": "Mount Vernon Hwy NE",
              "street_number": "859",
              "city": "Atlanta",
              "state": "GA",
              "zipcode": "30328"
            }
          },
          {
            "name": "Location1",
            "geocode": {
              "latitude": 34.0694722,
              "longitude": -84.2657757,
              "street_name": "Old Milton Pkwy",
              "street_number": "3300",
              "city": "Alpharetta",
              "state": "GA",
              "zipcode": "30005"
            }
          },
          {
            "name": "Location2",
            "geocode": {
              "latitude": 34.0269472,
              "longitude": -84.5682809,
              "street_name": "Big Shanty Rd NW",
              "street_number": "605",
              "city": "Kennesaw",
              "state": "GA",
              "zipcode": "30144"
            }
          },
          {
            "name": "Location3",
            "geocode": {
              "latitude": 33.9639406,
              "longitude": -83.4266214,
              "street_name": "Oglethorpe Avenue Suite 600 E",
              "street_number": "1500",
              "city": "Athens",
              "state": "GA",
              "zipcode": "30606"
            }
          }
        ]
      },
      {
        "name": "Practice1",
        "locations": [
          {
            "name": "Location0",
            "geocode": {
              "latitude": 33.8316693,
              "longitude": -84.3321942,
              "street_name": "Tullie Rd NE",
              "street_number": "1400",
              "city": "Atlanta",
              "state": "GA",
              "zipcode": "30329"
            }
          }
        ]
      }
    ]
  },
  {
    "id": 32,
    "name": "Physician32",
    "practices": [
      {
        "name": "Practice0",
        "locations": [
          {
            "name": "Location0",
            "geocode": {
              "latitude": 33.9788014,
              "longitude": -84.1017144,
              "street_name": "Duluth Hwy",
              "street_number": "2270",
              "city": "Duluth",
              "state": "GA",
              "zipcode": "30097"
            }
          },
          {
            "name": "Location1",
            "geocode": {
              "latitude": 33.7443766,
              "longitude": -84.9167066,
              "street_name": "Dallas Hwy",
              "street_number": "705",
              "city": "Villa Rica",
              "state": "GA",
              "zipcode": "30180"
            }
          },
          {
            "name": "Location2",
            "geocode": {
              "latitude": 33.9037465,
              "longitude": -84.3540817,
              "street_name": "Meridian Mark Rd NE",
              "street_number": "5445",
              "city": "Atlanta",
              "state": "GA",
              "zipcode": "30342"
            }
          },
          {
            "name": "Location3",
            "geocode": {
              "latitude": 34.0669155,
              "longitude": -83.902206,
              "street_name": "Teron Trce",
              "street_number": "2069",
              "city": "Dacula",
              "state": "GA",
              "zipcode": "30019"
            }
          }
        ]
      },
      {
        "name": "Practice1",
        "locations": [
          {
            "name": "Location0",
            "geocode": {
              "latitude": 33.8317072,
              "longitude": -84.3322364,
              "street_name": "Tullie Rd NE",
              "street_number": "1400",
              "city": "Atlanta",
              "state": "GA",
              "zipcode": "30329"
            }
          }
        ]
      }
    ]
  },
  {
    "id": 33,
    "name": "Physician33",
    "practices": [
      {
        "name": "Practice0",
        "locations": [
          {
            "name": "Location0",
            "geocode": {
              "latitude": 33.8315636,
              "longitude": -84.3322243,
              "street_name": "Tullie Rd NE",
              "street_number": "1400",
              "city": "Atlanta",
              "state": "GA",
              "zipcode": "30329"
            }
          },
          {
            "name": "Location1",
            "geocode": {
              "latitude": 33.7935738,
              "longitude": -84.3186323,
              "street_name": "Uppergate Dr NE",
              "street_number": "2015",
              "city": "Atlanta",
              "state": "GA",
              "zipcode": "30322"
            }
          }
        ]
      },
      {
        "name": "Practice1",
        "locations": [
          {
            "name": "Location0",
            "geocode": {
              "latitude": 33.8315636,
              "longitude": -84.3322243,
              "street_name": "Tullie Cir SE",
              "street_number": "1400",
              "city": "Atlanta",
              "state": "GA",
              "zipcode": "30329"
            }
          }
        ]
      }
    ]
  },
  {
    "id": 34,
    "name": "Physician34",
    "practices": [
      {
        "name": "Practice0",
        "locations": [
          {
            "name": "Location0",
            "geocode": {
              "latitude": 33.8315636,
              "longitude": -84.3322243,
              "street_name": "Tullie Rd NE",
              "street_number": "1400",
              "city": "Atlanta",
              "state": "GA",
              "zipcode": "30329"
            }
          },
          {
            "name": "Location1",
            "geocode": {
              "latitude": 33.7937283,
              "longitude": -84.3197718,
              "street_name": "Clifton Rd NE",
              "street_number": "1405",
              "city": "Atlanta",
              "state": "GA",
              "zipcode": "30322"
            }
          },
          {
            "name": "Location2",
            "geocode": {
              "latitude": 33.5095084,
              "longitude": -84.2229807,
              "street_name": "Village Center Pkwy",
              "street_number": "202",
              "city": "Stockbridge",
              "state": "GA",
              "zipcode": "30281"
            }
          },
          {
            "name": "Location3",
            "geocode": {
              "latitude": 33.7443766,
              "longitude": -84.9167066,
              "street_name": "Dallas Hwy",
              "street_number": "705",
              "city": "Villa Rica",
              "state": "GA",
              "zipcode": "30180"
            }
          },
          {
            "name": "Location4",
            "geocode": {
              "latitude": 33.4026155,
              "longitude": -84.710126,
              "street_name": "Oak Hill Blvd",
              "street_number": "60",
              "city": "Newnan",
              "state": "GA",
              "zipcode": "30265"
            }
          }
        ]
      }
    ]
  },
  {
    "id": 35,
    "name": "Physician35",
    "practices": [
      {
        "name": "Practice0",
        "locations": [
          {
            "name": "Location0",
            "geocode": {
              "latitude": 33.8315636,
              "longitude": -84.3322243,
              "street_name": "Tullie Rd NE",
              "street_number": "1400",
              "city": "Atlanta",
              "state": "GA",
              "zipcode": "30329"
            }
          },
          {
            "name": "Location1",
            "geocode": {
              "latitude": 33.9472661,
              "longitude": -83.4058492,
              "street_name": "Baxter St",
              "street_number": "1230",
              "city": "Athens",
              "state": "GA",
              "zipcode": "30606"
            }
          }
        ]
      }
    ]
  },
  {
    "id": 36,
    "name": "Physician36",
    "practices": [
      {
        "name": "Practice0",
        "locations": [
          {
            "name": "Location0",
            "geocode": {
              "latitude": 33.8317072,
              "longitude": -84.3322364,
              "street_name": "Tullie Rd NE",
              "street_number": "1400",
              "city": "Atlanta",
              "state": "GA",
              "zipcode": "30329"
            }
          },
          {
            "name": "Location1",
            "geocode": {
              "latitude": 33.906061,
              "longitude": -84.3542984,
              "street_name": "Johnson Ferry Rd NE",
              "street_number": "1001",
              "city": "Atlanta",
              "state": "GA",
              "zipcode": "30342"
            }
          },
          {
            "name": "Location2",
            "geocode": {
              "latitude": 33.7937283,
              "longitude": -84.3197718,
              "street_name": "Clifton Rd NE",
              "street_number": "1405",
              "city": "Atlanta",
              "state": "GA",
              "zipcode": "30322"
            }
          },
          {
            "name": "Location3",
            "geocode": {
              "latitude": 34.0269472,
              "longitude": -84.5682809,
              "street_name": "Big Shanty Rd NW",
              "street_number": "605",
              "city": "Kennesaw",
              "state": "GA",
              "zipcode": "30144"
            }
          }
        ]
      }
    ]
  },
  {
    "id": 37,
    "name": "Physician37",
    "practices": [
      {
        "name": "Practice0",
        "locations": [
          {
            "name": "Location0",
            "geocode": {
              "latitude": 33.9788014,
              "longitude": -84.1017144,
              "street_name": "Duluth Hwy",
              "street_number": "2270",
              "city": "Duluth",
              "state": "GA",
              "zipcode": "30097"
            }
          },
          {
            "name": "Location1",
            "geocode": {
              "latitude": 34.0694722,
              "longitude": -84.2657757,
              "street_name": "Old Milton Pkwy",
              "street_number": "3300",
              "city": "Alpharetta",
              "state": "GA",
              "zipcode": "30005"
            }
          },
          {
            "name": "Location2",
            "geocode": {
              "latitude": 33.9718764,
              "longitude": -84.5547322,
              "street_name": "White St NW",
              "street_number": "175",
              "city": "Marietta",
              "state": "GA",
              "zipcode": "30060"
            }
          },
          {
            "name": "Location3",
            "geocode": {
              "latitude": 33.9037465,
              "longitude": -84.3540817,
              "street_name": "Meridian Mark Rd NE",
              "street_number": "5445",
              "city": "Atlanta",
              "state": "GA",
              "zipcode": "30342"
            }
          }
        ]
      }
    ]
  },
  {
    "id": 38,
    "name": "Physician38",
    "practices": [
      {
        "name": "Practice0",
        "locations": [
          {
            "name": "Location0",
            "geocode": {
              "latitude": 33.8315636,
              "longitude": -84.3322243,
              "street_name": "Tullie Rd NE",
              "street_number": "1400",
              "city": "Atlanta",
              "state": "GA",
              "zipcode": "30329"
            }
          },
          {
            "name": "Location1",
            "geocode": {
              "latitude": 33.90522,
              "longitude": -84.3544139,
              "street_name": "Meridian Mark Rd",
              "street_number": "5461",
              "city": "Atlanta",
              "state": "GA",
              "zipcode": "30342"
            }
          },
          {
            "name": "Location2",
            "geocode": {
              "latitude": 34.0694722,
              "longitude": -84.2657757,
              "street_name": "Old Milton Pkwy",
              "street_number": "3300",
              "city": "Alpharetta",
              "state": "GA",
              "zipcode": "30005"
            }
          }
        ]
      }
    ]
  },
  {
    "id": 39,
    "name": "Physician39",
    "practices": [
      {
        "name": "Practice0",
        "locations": [
          {
            "name": "Location0",
            "geocode": {
              "latitude": 33.906061,
              "longitude": -84.3542984,
              "street_name": "Johnson Ferry Rd NE",
              "street_number": "1001",
              "city": "Atlanta",
              "state": "GA",
              "zipcode": "30342"
            }
          },
          {
            "name": "Location1",
            "geocode": {
              "latitude": 33.9037465,
              "longitude": -84.3540817,
              "street_name": "Meridian Mark Rd",
              "street_number": "5445",
              "city": "Atlanta",
              "state": "GA",
              "zipcode": "30342"
            }
          },
          {
            "name": "Location2",
            "geocode": {
              "latitude": 33.8315636,
              "longitude": -84.3322243,
              "street_name": "Tullie Rd NE",
              "street_number": "1400",
              "city": "Atlanta",
              "state": "GA",
              "zipcode": "30329"
            }
          },
          {
            "name": "Location3",
            "geocode": {
              "latitude": 34.0368681,
              "longitude": -84.2926796,
              "street_name": "Mansell Rd",
              "street_number": "3795",
              "city": "Alpharetta",
              "state": "GA",
              "zipcode": "30022"
            }
          }
        ]
      }
    ]
  },
  {
    "id": 40,
    "name": "Physician40",
    "practices": [
      {
        "name": "Practice0",
        "locations": [
          {
            "name": "Location0",
            "geocode": {
              "latitude": 33.906061,
              "longitude": -84.3542984,
              "street_name": "Johnson Ferry Rd NE",
              "street_number": "1001",
              "city": "Atlanta",
              "state": "GA",
              "zipcode": "30342"
            }
          },
          {
            "name": "Location1",
            "geocode": {
              "latitude": 33.8315636,
              "longitude": -84.3322243,
              "street_name": "Tullie Rd NE",
              "street_number": "1400",
              "city": "Atlanta",
              "state": "GA",
              "zipcode": "30329"
            }
          },
          {
            "name": "Location2",
            "geocode": {
              "latitude": 33.9667765,
              "longitude": -84.1013929,
              "street_name": "Satellite Blvd",
              "street_number": "2660",
              "city": "Duluth",
              "state": "GA",
              "zipcode": "30096"
            }
          }
        ]
      }
    ]
  },
  {
    "id": 41,
    "name": "Physician41",
    "practices": [
      {
        "name": "Practice0",
        "locations": [
          {
            "name": "Location0",
            "geocode": {
              "latitude": 33.8315636,
              "longitude": -84.3322243,
              "street_name": "Tullie Rd NE",
              "street_number": "1400",
              "city": "Atlanta",
              "state": "GA",
              "zipcode": "30329"
            }
          },
          {
            "name": "Location1",
            "geocode": {
              "latitude": 33.7935738,
              "longitude": -84.3186323,
              "street_name": "Uppergate Dr NE",
              "street_number": "2015",
              "city": "Atlanta",
              "state": "GA",
              "zipcode": "30322"
            }
          }
        ]
      },
      {
        "name": "Practice1",
        "locations": [
          {
            "name": "Location0",
            "geocode": {
              "latitude": 33.8315636,
              "longitude": -84.3322243,
              "street_name": "Tullie Cir SE",
              "street_number": "1400",
              "city": "Atlanta",
              "state": "GA",
              "zipcode": "30329"
            }
          }
        ]
      }
    ]
  },
  {
    "id": 42,
    "name": "Physician42",
    "practices": [
      {
        "name": "Practice0",
        "locations": [
          {
            "name": "Location0",
            "geocode": {
              "latitude": 34.0694722,
              "longitude": -84.2657757,
              "street_name": "Old Milton Pkwy",
              "street_number": "3300",
              "city": "Alpharetta",
              "state": "GA",
              "zipcode": "30005"
            }
          },
          {
            "name": "Location1",
            "geocode": {
              "latitude": 34.1540871,
              "longitude": -84.1781819,
              "street_name": "Peachtree Pkwy",
              "street_number": "410",
              "city": "Cumming",
              "state": "GA",
              "zipcode": "30041"
            }
          },
          {
            "name": "Location2",
            "geocode": {
              "latitude": 33.4525526,
              "longitude": -84.5082577,
              "street_name": "Highway 54 W",
              "street_number": "1265",
              "city": "Fayetteville",
              "state": "GA",
              "zipcode": "30214"
            }
          },
          {
            "name": "Location3",
            "geocode": {
              "latitude": 33.9037465,
              "longitude": -84.3540817,
              "street_name": "Meridian Mark Rd NE",
              "street_number": "5445",
              "city": "Atlanta",
              "state": "GA",
              "zipcode": "30342"
            }
          }
        ]
      }
    ]
  },
  {
    "id": 43,
    "name": "Physician43",
    "practices": [
      {
        "name": "Practice0",
        "locations": [
          {
            "name": "Location0",
            "geocode": {
              "latitude": 33.8315636,
              "longitude": -84.3322243,
              "street_name": "Tullie Rd NE",
              "street_number": "1400",
              "city": "Atlanta",
              "state": "GA",
              "zipcode": "30329"
            }
          },
          {
            "name": "Location1",
            "geocode": {
              "latitude": 33.7937283,
              "longitude": -84.3197718,
              "street_name": "Clifton Rd NE",
              "street_number": "1405",
              "city": "Atlanta",
              "state": "GA",
              "zipcode": "30322"
            }
          }
        ]
      }
    ]
  },
  {
    "id": 44,
    "name": "Physician44",
    "practices": [
      {
        "name": "Practice0",
        "locations": [
          {
            "name": "Location0",
            "geocode": {
              "latitude": 33.90522,
              "longitude": -84.3544139,
              "street_name": "Meridian Mark Rd NE",
              "street_number": "5461",
              "city": "Atlanta",
              "state": "GA",
              "zipcode": "30342"
            }
          },
          {
            "name": "Location1",
            "geocode": {
              "latitude": 34.0694722,
              "longitude": -84.2657757,
              "street_name": "Old Milton Pkwy",
              "street_number": "3300",
              "city": "Alpharetta",
              "state": "GA",
              "zipcode": "30005"
            }
          }
        ]
      },
      {
        "name": "Practice1",
        "locations": [
          {
            "name": "Location0",
            "geocode": {
              "latitude": 34.2578782,
              "longitude": -84.4623834,
              "street_name": "Riverstone Pkwy",
              "street_number": "1558",
              "city": "Canton",
              "state": "GA",
              "zipcode": "30114"
            }
          }
        ]
      }
    ]
  },
  {
    "id": 45,
    "name": "Physician45",
    "practices": [
      {
        "name": "Practice0",
        "locations": [
          {
            "name": "Location0",
            "geocode": {
              "latitude": 33.8317072,
              "longitude": -84.3322364,
              "street_name": "Tullie Rd NE",
              "street_number": "1400",
              "city": "Atlanta",
              "state": "GA",
              "zipcode": "30329"
            }
          },
          {
            "name": "Location1",
            "geocode": {
              "latitude": 33.967431,
              "longitude": -84.0998596,
              "street_name": "Satellite Blvd",
              "street_number": "2620",
              "city": "Duluth",
              "state": "GA",
              "zipcode": "30096"
            }
          }
        ]
      },
      {
        "name": "Practice1",
        "locations": [
          {
            "name": "Location0",
            "geocode": {
              "latitude": 33.90522,
              "longitude": -84.3544139,
              "street_name": "Meridian Mark Rd NE",
              "street_number": "5461",
              "city": "Atlanta",
              "state": "GA",
              "zipcode": "30342"
            }
          }
        ]
      }
    ]
  },
  {
    "id": 46,
    "name": "Physician46",
    "practices": [
      {
        "name": "Practice0",
        "locations": [
          {
            "name": "Location0",
            "geocode": {
              "latitude": 34.1535941,
              "longitude": -84.1768731,
              "street_name": "Peachtree Pkwy",
              "street_number": "410",
              "city": "Cumming",
              "state": "GA",
              "zipcode": "30041"
            }
          },
          {
            "name": "Location1",
            "geocode": {
              "latitude": 34.0368681,
              "longitude": -84.2926796,
              "street_name": "Mansell Rd",
              "street_number": "3795",
              "city": "Alpharetta",
              "state": "GA",
              "zipcode": "30022"
            }
          }
        ]
      }
    ]
  },
  {
    "id": 47,
    "name": "Physician47",
    "practices": [
      {
        "name": "Practice0",
        "locations": [
          {
            "name": "Location0",
            "geocode": {
              "latitude": 33.90522,
              "longitude": -84.3544139,
              "street_name": "Meridian Mark Rd",
              "street_number": "5461",
              "city": "Atlanta",
              "state": "GA",
              "zipcode": "30342"
            }
          },
          {
            "name": "Location1",
            "geocode": {
              "latitude": 34.0694722,
              "longitude": -84.2657757,
              "street_name": "Old Milton Pkwy",
              "street_number": "3300",
              "city": "Alpharetta",
              "state": "GA",
              "zipcode": "30005"
            }
          }
        ]
      }
    ]
  },
  {
    "id": 48,
    "name": "Physician48",
    "practices": [
      {
        "name": "Practice0",
        "locations": [
          {
            "name": "Location0",
            "geocode": {
              "latitude": 33.906061,
              "longitude": -84.3542984,
              "street_name": "Johnson Ferry Rd NE",
              "street_number": "1001",
              "city": "Atlanta",
              "state": "GA",
              "zipcode": "30342"
            }
          },
          {
            "name": "Location1",
            "geocode": {
              "latitude": 33.90522,
              "longitude": -84.3544139,
              "street_name": "Meridian Mark Rd NE",
              "street_number": "5461",
              "city": "Atlanta",
              "state": "GA",
              "zipcode": "30342"
            }
          }
        ]
      }
    ]
  },
  {
    "id": 49,
    "name": "Physician49",
    "practices": [
      {
        "name": "Practice0",
        "locations": [
          {
            "name": "Location0",
            "geocode": {
              "latitude": 33.9287965,
              "longitude": -84.3588732,
              "street_name": "Mount Vernon Hwy NE",
              "street_number": "859",
              "city": "Atlanta",
              "state": "GA",
              "zipcode": "30328"
            }
          },
          {
            "name": "Location1",
            "geocode": {
              "latitude": 34.0694722,
              "longitude": -84.2657757,
              "street_name": "Old Milton Pkwy",
              "street_number": "3300",
              "city": "Alpharetta",
              "state": "GA",
              "zipcode": "30005"
            }
          },
          {
            "name": "Location2",
            "geocode": {
              "latitude": 34.0269472,
              "longitude": -84.5682809,
              "street_name": "Big Shanty Rd NW",
              "street_number": "605",
              "city": "Kennesaw",
              "state": "GA",
              "zipcode": "30144"
            }
          }
        ]
      },
      {
        "name": "Practice1",
        "locations": [
          {
            "name": "Location0",
            "geocode": {
              "latitude": 33.8316693,
              "longitude": -84.3321942,
              "street_name": "Tullie Rd NE",
              "street_number": 1400,
              "city": "Atlanta",
              "state": "GA",
              "zipcode": "30329"
            }
          }
        ]
      }
    ]
  }
]